{
    "Browser History": [
        {
            "page_transition": "TYPED",
            "title": "Sport en direct, Match en direct, infos sport en temps réel - Eurosport",
            "url": "https://www.eurosport.fr/",
            "client_id": "52fO201R5VCAxCLXVWnHxA\u003d\u003d",
            "time_usec": 1525207787920227
},   
        {
            "page_transition": "LINK",
            "title": "Pour Nadal, l\u0027hiver a été \"compliqué\" - Masters Madrid 2018 - Tennis - Eurosport",
            "url": "https://www.eurosport.fr/tennis/masters-madrid/2018/pour-nadal-l-hiver-a-ete-complique_sto6735723/story.shtml",
            "client_id": "52fO201R5VCAxCLXVWnHxA\u003d\u003d",
            "time_usec": 1525207784510499
},
        {
            "page_transition": "TYPED",
            "title": "Sport en direct, Match en direct, infos sport en temps réel - Eurosport",
            "url": "https://www.eurosport.fr/",
            "client_id": "52fO201R5VCAxCLXVWnHxA\u003d\u003d",
            "time_usec": 1525207662613584
},
        {
            "page_transition": "LINK",
            "title": "Ligue Afrique: CAF Ligue des champions 2018 Live, Classement CAF Ligue des champions 2018",
            "url": "https://www.ligue.fr/football/afrique/caf-ligue-des-champions/",
            "client_id": "52fO201R5VCAxCLXVWnHxA\u003d\u003d",
            "time_usec": 1525199899295970
},
        {
            "page_transition": "GENERATED",
            "title": "classement groupe caf - Recherche Google",
            "url": "https://www.google.com/search?q\u003dclassement+groupe+caf\u0026oq\u003dclassement+groupe+caf\u0026aqs\u003dchrome..69i57j0l3.3908j0j9\u0026client\u003dms-android-att-us\u0026sourceid\u003dchrome-mobile\u0026ie\u003dUTF-8",
            "client_id": "52fO201R5VCAxCLXVWnHxA\u003d\u003d",
            "time_usec": 1525199894557737
},
        {
            "page_transition": "RELOAD",
            "title": "classement botola - Recherche Google",
            "url": "https://www.google.com/search?q\u003dclassement+botola\u0026oq\u003dclassement+botola\u0026aqs\u003dchrome..69i57j35i39j0l2.2928j0j9\u0026client\u003dms-android-att-us\u0026sourceid\u003dchrome-mobile\u0026ie\u003dUTF-8#sie\u003dlg;/g/11df0q45dq;2;/m/0cvpsc;st;fp;1",
            "client_id": "52fO201R5VCAxCLXVWnHxA\u003d\u003d",
            "time_usec": 1525199888278066
},
        {
            "page_transition": "LINK",
            "title": "classement botola - Recherche Google",
            "url": "https://www.google.com/search?q\u003dclassement+botola\u0026oq\u003dclassement+botola\u0026aqs\u003dchrome..69i57j35i39j0l2.2928j0j9\u0026client\u003dms-android-att-us\u0026sourceid\u003dchrome-mobile\u0026ie\u003dUTF-8#sie\u003dlg;/g/11df0q45dq;2;/m/0cvpsc;st;fp;1",
            "client_id": "52fO201R5VCAxCLXVWnHxA\u003d\u003d",
            "time_usec": 1525183429936903
},
        {
            "page_transition": "GENERATED",
            "title": "classement botola - Recherche Google",
            "url": "https://www.google.com/search?q\u003dclassement+botola\u0026oq\u003dclassement+botola\u0026aqs\u003dchrome..69i57j35i39j0l2.2928j0j9\u0026client\u003dms-android-att-us\u0026sourceid\u003dchrome-mobile\u0026ie\u003dUTF-8",
            "client_id": "52fO201R5VCAxCLXVWnHxA\u003d\u003d",
            "time_usec": 1525183418942787
},
        {
            "page_transition": "GENERATED",
            "title": "couleur chocolat au lait - Recherche Google",
            "url": "https://www.google.com/search?q\u003dcouleur+chocolat+au+lait\u0026oq\u003dcouleur+chocolat+au+lait\u0026aqs\u003dchrome..69i57j0l3.5195j0j4\u0026client\u003dms-android-att-us\u0026sourceid\u003dchrome-mobile\u0026ie\u003dUTF-8",
            "client_id": "52fO201R5VCAxCLXVWnHxA\u003d\u003d",
            "time_usec": 1525180033525972
},
        {
            "page_transition": "LINK",
            "title": "couleur chocolat au lait - Recherche Google",
            "url": "https://www.google.com/search?q\u003dcouleur+chocolat+au+lait\u0026safe\u003doff\u0026client\u003dms-android-att-us\u0026prmd\u003divn\u0026source\u003dlnms\u0026tbm\u003disch\u0026sa\u003dX\u0026ved\u003d0ahUKEwiIjdysyuTaAhXChaYKHZyNC04Q_AUIESgB\u0026biw\u003d360\u0026bih\u003d559\u0026dpr\u003d3",
            "client_id": "52fO201R5VCAxCLXVWnHxA\u003d\u003d",
            "time_usec": 1525180028751775
},
        {
            "page_transition": "FORM_SUBMIT",
            "title": "Groupe AL OMRANE - Projets",
            "url": "http://www.alomrane.gov.ma/Produits/Projets?tree\u003d63\u0026area%5Bmin%5D\u003d6\u0026area%5Bmax%5D\u003d400\u0026price%5Bmin%5D\u003d5432\u0026price%5Bmax%5D\u003d1200000\u0026city\u003d\u0026type\u003d\u0026text\u003d\u0026mode\u003d\u0026state\u003d\u0026disponible\u003d1",
            "client_id": "52fO201R5VCAxCLXVWnHxA\u003d\u003d",
            "time_usec": 1525178950421469
},
        {
            "page_transition": "FORM_SUBMIT",
            "title": "Groupe AL OMRANE - Projets",
            "url": "http://www.alomrane.gov.ma/Produits/Projets?tree\u003d63\u0026area%5Bmin%5D\u003d235\u0026area%5Bmax%5D\u003d400\u0026price%5Bmin%5D\u003d349\u0026price%5Bmax%5D\u003d786905\u0026city\u003d357\u0026type\u003d\u0026text\u003d\u0026mode\u003d\u0026state\u003d\u0026disponible\u003d1",
            "client_id": "52fO201R5VCAxCLXVWnHxA\u003d\u003d",
            "time_usec": 1525178938714939
},
        {
            "page_transition": "LINK",
            "title": "Groupe AL OMRANE - Projets",
            "url": "http://www.alomrane.gov.ma/Produits/Projets",
            "client_id": "52fO201R5VCAxCLXVWnHxA\u003d\u003d",
            "time_usec": 1525178833755631
},
        {
            "page_transition": "TYPED",
            "title": "Groupe AL OMRANE - Alomrane",
            "url": "http://www.alomrane.gov.ma/",
            "client_id": "52fO201R5VCAxCLXVWnHxA\u003d\u003d",
            "time_usec": 1525178787070922
},
        {
            "page_transition": "RELOAD",
            "title": "maroc 2018 adidas - Recherche Google",
            "url": "https://www.google.com/search?q\u003dmaroc+2018+adidas\u0026safe\u003doff\u0026client\u003dms-android-att-us\u0026prmd\u003dinv\u0026source\u003dlnms\u0026sa\u003dX\u0026ved\u003d0ahUKEwjHiITYoOPaAhXiIpoKHYdZDugQ_AUIECgA\u0026biw\u003d360\u0026bih\u003d306\u0026dpr\u003d3",
            "client_id": "52fO201R5VCAxCLXVWnHxA\u003d\u003d",
            "time_usec": 1525178774518725
},
        {
            "page_transition": "LINK",
            "title": "maroc 2018 adidas - Recherche Google",
            "url": "https://www.google.com/search?q\u003dmaroc+2018+adidas\u0026safe\u003doff\u0026client\u003dms-android-att-us\u0026prmd\u003dinv\u0026source\u003dlnms\u0026sa\u003dX\u0026ved\u003d0ahUKEwjHiITYoOPaAhXiIpoKHYdZDugQ_AUIECgA\u0026biw\u003d360\u0026bih\u003d306\u0026dpr\u003d3",
            "client_id": "52fO201R5VCAxCLXVWnHxA\u003d\u003d",
            "time_usec": 1525134534944814
},
        {
            "page_transition": "LINK",
            "title": "Le nouveau maillot du Maroc pour la Coupe du monde 2018 ne fait (vraiment) pas l\u0027unanimité",
            "url": "https://www.google.com/amp/s/m.huffpostmaghreb.com/amp/entry/le-nouveau-maillot-du-maroc-pour-la-coupe-du-monde-2018-na-pas-plu-aux-internautes_mg_5ae4759ee4b02baed1ba99d4/",
            "client_id": "52fO201R5VCAxCLXVWnHxA\u003d\u003d",
            "time_usec": 1525134522647697
},
        {
            "page_transition": "LINK",
            "title": "Le nouveau maillot du Maroc pour la Coupe du monde 2018 ne fait (vraiment) pas l\u0027unanimité",
            "url": "https://www.google.com/search?q\u003dmaroc+2018+adidas\u0026safe\u003doff\u0026client\u003dms-android-att-us\u0026prmd\u003dinv\u0026source\u003dlnms\u0026sa\u003dX\u0026ved\u003d0ahUKEwjHiITYoOPaAhXiIpoKHYdZDugQ_AUIECgA\u0026biw\u003d360\u0026bih\u003d306\u0026dpr\u003d3",
            "client_id": "52fO201R5VCAxCLXVWnHxA\u003d\u003d",
            "time_usec": 1525134522507665
},
        {
            "page_transition": "LINK",
            "title": "maroc 2018 adidas - Recherche Google",
            "url": "https://www.google.com/search?q\u003dmaroc+2018+adidas\u0026safe\u003doff\u0026client\u003dms-android-att-us\u0026prmd\u003dinv\u0026source\u003dlnms\u0026sa\u003dX\u0026ved\u003d0ahUKEwjHiITYoOPaAhXiIpoKHYdZDugQ_AUIECgA\u0026biw\u003d360\u0026bih\u003d306\u0026dpr\u003d3",
            "client_id": "52fO201R5VCAxCLXVWnHxA\u003d\u003d",
            "time_usec": 1525134511158259
},
        {
            "page_transition": "FORM_SUBMIT",
            "title": "maroc 2018 adidas - Recherche Google",
            "url": "https://www.google.com/search?safe\u003doff\u0026client\u003dms-android-att-us\u0026tbm\u003disch\u0026sa\u003d1\u0026ei\u003di7TnWviKE4GB6ASF7aHIAg\u0026q\u003dmaroc+2018+adidas\u0026oq\u003dmaroc+2018+adidas\u0026gs_l\u003dmobile-gws-wiz-img.3..0i24.3930.4438..4893...0....188.345.0j2..........1.........0i7i5i30j0i8i7i30.BGGzdyUA7Ws%3D",
            "client_id": "52fO201R5VCAxCLXVWnHxA\u003d\u003d",
            "time_usec": 1525134502277564
},
        {
            "page_transition": "LINK",
            "title": "maroc 2018 adidas - Recherche Google",
            "url": "https://www.google.com/search?safe\u003doff\u0026client\u003dms-android-att-us\u0026tbm\u003disch\u0026sa\u003d1\u0026ei\u003di7TnWviKE4GB6ASF7aHIAg\u0026q\u003dmaroc+2018+adidas\u0026oq\u003dmaroc+2018+adidas\u0026gs_l\u003dmobile-gws-wiz-img.3..0i24.3930.4438..4893...0....188.345.0j2..........1.........0i7i5i30j0i8i7i30.BGGzdyUA7Ws%3D#imgrc\u003djRCJCoSM2MFZVM:",
            "client_id": "52fO201R5VCAxCLXVWnHxA\u003d\u003d",
            "time_usec": 1525134498020933
},
        {
            "page_transition": "FORM_SUBMIT",
            "title": "maroc 2018 adidas - Recherche Google",
            "url": "https://www.google.com/search?safe\u003doff\u0026client\u003dms-android-att-us\u0026tbm\u003disch\u0026sa\u003d1\u0026ei\u003di7TnWviKE4GB6ASF7aHIAg\u0026q\u003dmaroc+2018+adidas\u0026oq\u003dmaroc+2018+adidas\u0026gs_l\u003dmobile-gws-wiz-img.3..0i24.3930.4438..4893...0....188.345.0j2..........1.........0i7i5i30j0i8i7i30.BGGzdyUA7Ws%3D",
            "client_id": "52fO201R5VCAxCLXVWnHxA\u003d\u003d",
            "time_usec": 1525134481868812
},
        {
            "page_transition": "FORM_SUBMIT",
            "title": "maroc 2012 adidas - Recherche Google",
            "url": "https://www.google.com/search?safe\u003doff\u0026client\u003dms-android-att-us\u0026tbm\u003disch\u0026sa\u003d1\u0026ei\u003ddbTnWsC6OOOe6AS9xqHYBw\u0026q\u003dmaroc+2012+adidas\u0026oq\u003dmaroc+2012+adidas\u0026gs_l\u003dmobile-gws-wiz-img.3..30i10.11014.20088..20207...1....325.5101.0j28j2j1..........1.........0j35i39j0i5i30j0i24j0i67.DNg%2BcRqE4Ok%3D",
            "client_id": "52fO201R5VCAxCLXVWnHxA\u003d\u003d",
            "time_usec": 1525134475688887
},
        {
            "page_transition": "FORM_SUBMIT",
            "title": "maroc mondial 2018 maillot - Recherche Google",
            "url": "https://www.google.com/search?safe\u003doff\u0026client\u003dms-android-att-us\u0026tbm\u003disch\u0026sa\u003d1\u0026ei\u003dabTnWp6MH6Xw6ATDhYiQDQ\u0026q\u003dmaroc+mondial+2018+maillot\u0026oq\u003dmaroc+mondial+2018+maillot\u0026gs_l\u003dmobile-gws-wiz-img.3...8977.10548..10721...0....190.1156.0j8..........1.........0i5i30j0i24j30i10.WJIXDfeGdPI%3D",
            "client_id": "52fO201R5VCAxCLXVWnHxA\u003d\u003d",
            "time_usec": 1525134454310624
},
        {
            "page_transition": "LINK",
            "title": "maroc mondial 2018 - Recherche Google",
            "url": "https://www.google.com/search?q\u003dmaroc+mondial+2018\u0026safe\u003doff\u0026client\u003dms-android-att-us\u0026prmd\u003dinv\u0026source\u003dlnms\u0026tbm\u003disch\u0026sa\u003dX\u0026ved\u003d0ahUKEwiktITEoOPaAhWhBZoKHe4UAGgQ_AUIESgB",
            "client_id": "52fO201R5VCAxCLXVWnHxA\u003d\u003d",
            "time_usec": 1525134442148106
},
        {
            "page_transition": "GENERATED",
            "title": "maroc mondial 2018 - Recherche Google",
            "url": "https://www.google.com/search?q\u003dmaroc+mondial+2018\u0026oq\u003dmaroc+mondial+2018\u0026aqs\u003dchrome..69i57j69i60j0l3.4425j0j4\u0026client\u003dms-android-att-us\u0026sourceid\u003dchrome-mobile\u0026ie\u003dUTF-8",
            "client_id": "52fO201R5VCAxCLXVWnHxA\u003d\u003d",
            "time_usec": 1525134439933417
},
        {
            "page_transition": "RELOAD",
            "title": "Classement buteurs Premier League 2017-2018 - Football - Eurosport",
            "url": "https://www.eurosport.fr/football/premier-league/standingperson.shtml",
            "client_id": "52fO201R5VCAxCLXVWnHxA\u003d\u003d",
            "time_usec": 1525134433724236
},
        {
            "page_transition": "LINK",
            "title": "Classement buteurs Premier League 2017-2018 - Football - Eurosport",
            "url": "https://www.eurosport.fr/football/premier-league/standingperson.shtml",
            "client_id": "52fO201R5VCAxCLXVWnHxA\u003d\u003d",
            "time_usec": 1525126977537987
},
        {
            "page_transition": "LINK",
            "title": "Premier League 2017-2018 : actualités, photos et vidéos en direct - Football - Eurosport",
            "url": "https://www.eurosport.fr/football/premier-league/#col-left",
            "client_id": "52fO201R5VCAxCLXVWnHxA\u003d\u003d",
            "time_usec": 1525126974473611
},
        {
            "page_transition": "LINK",
            "title": "Calendrier et résultats Premier League 2017-2018 - Football - Eurosport",
            "url": "https://www.eurosport.fr/football/premier-league/calendar-result.shtml",
            "client_id": "52fO201R5VCAxCLXVWnHxA\u003d\u003d",
            "time_usec": 1525126970332108
},
        {
            "page_transition": "LINK",
            "title": "EN DIRECT / LIVE. Crystal Palace - Leicester City - Premier League - 28 avril 2018 - Eurosport",
            "url": "https://www.eurosport.fr/football/premier-league/2017-2018/live-crystal-palace-leicester-city_mtc946940/live.shtml",
            "client_id": "52fO201R5VCAxCLXVWnHxA\u003d\u003d",
            "time_usec": 1525126968076378
},
        {
            "page_transition": "LINK",
            "title": "EN DIRECT / LIVE. Tottenham - Watford - Premier League - 30 avril 2018 - Eurosport",
            "url": "https://www.eurosport.fr/football/premier-league/2017-2018/live-tottenham-watford_mtc946926/live.shtml",
            "client_id": "52fO201R5VCAxCLXVWnHxA\u003d\u003d",
            "time_usec": 1525126961496264
},
        {
            "page_transition": "LINK",
            "title": "Calendrier et résultats Premier League 2017-2018 - Football - Eurosport",
            "url": "https://www.eurosport.fr/football/premier-league/calendar-result.shtml",
            "client_id": "52fO201R5VCAxCLXVWnHxA\u003d\u003d",
            "time_usec": 1525126957424809
},
        {
            "page_transition": "LINK",
            "title": "Premier League 2017-2018 : actualités, photos et vidéos en direct - Football - Eurosport",
            "url": "https://www.eurosport.fr/football/premier-league/#col-left",
            "client_id": "52fO201R5VCAxCLXVWnHxA\u003d\u003d",
            "time_usec": 1525126953936347
},
        {
            "page_transition": "LINK",
            "title": "Premier League 2017-2018 : actualités, photos et vidéos en direct - Football - Eurosport",
            "url": "https://www.eurosport.fr/football/premier-league/",
            "client_id": "52fO201R5VCAxCLXVWnHxA\u003d\u003d",
            "time_usec": 1525126952024504
},
        {
            "page_transition": "LINK",
            "title": "Tottenham se rapproche de la C1 en battant Watford (2-0) - Premier League 2017-2018 - Football - Eurosport",
            "url": "https://www.eurosport.fr/football/premier-league/2017-2018/tottenham-se-rapproche-de-la-c1-en-battant-watford-2-0_sto6734989/story.shtml",
            "client_id": "52fO201R5VCAxCLXVWnHxA\u003d\u003d",
            "time_usec": 1525126903070405
},
        {
            "page_transition": "TYPED",
            "title": "Sport en direct, Match en direct, infos sport en temps réel - Eurosport",
            "url": "https://www.eurosport.fr/",
            "client_id": "52fO201R5VCAxCLXVWnHxA\u003d\u003d",
            "time_usec": 1525126866916816
},
        {
            "page_transition": "RELOAD",
            "title": "Mondial 2018: et si le maillot du Maroc ressemblait à celui de1986?",
            "url": "http://www.lesiteinfo.com/sport/mondial-2018-voici-le-maillot-du-maroc-selon-lequipe-photo/",
            "client_id": "52fO201R5VCAxCLXVWnHxA\u003d\u003d",
            "time_usec": 1525126864212509
},
        {
            "page_transition": "LINK",
            "title": "Mondial 2018: et si le maillot du Maroc ressemblait à celui de1986?",
            "url": "http://www.lesiteinfo.com/sport/mondial-2018-voici-le-maillot-du-maroc-selon-lequipe-photo/",
            "client_id": "52fO201R5VCAxCLXVWnHxA\u003d\u003d",
            "time_usec": 1525047899242616
},
        {
            "page_transition": "LINK",
            "title": "Mondial 2018: et si le maillot du Maroc ressemblait à celui de1986?",
            "url": "http://www.lesiteinfo.com/sport/mondial-2018-voici-le-maillot-du-maroc-selon-lequipe-photo/",
            "client_id": "52fO201R5VCAxCLXVWnHxA\u003d\u003d",
            "time_usec": 1525047899235971
},
        {
            "page_transition": "LINK",
            "title": "Mondial 2018: et si le maillot du Maroc ressemblait à celui de1986?",
            "url": "http://www.lesiteinfo.com/sport/mondial-2018-voici-le-maillot-du-maroc-selon-lequipe-photo/",
            "client_id": "52fO201R5VCAxCLXVWnHxA\u003d\u003d",
            "time_usec": 1525047899222011
},
        {
            "page_transition": "LINK",
            "title": "Mondial 2018: et si le maillot du Maroc ressemblait à celui de1986?",
            "url": "http://www.lesiteinfo.com/sport/mondial-2018-voici-le-maillot-du-maroc-selon-lequipe-photo/",
            "client_id": "52fO201R5VCAxCLXVWnHxA\u003d\u003d",
            "time_usec": 1525047893186158
},
        {
            "page_transition": "FORM_SUBMIT",
            "title": "tenue mondial 2018 maroc - Recherche Google",
            "url": "https://www.google.com/search?safe\u003doff\u0026client\u003dms-android-att-us\u0026ei\u003dPmLmWqioDZKNmgXa4Kr4DA\u0026q\u003dtenue+mondial+2018+maroc\u0026oq\u003dtenue+mondial+2018+maroc\u0026gs_l\u003dmobile-gws-wiz-serp.3...293.2870..3239...0....292.1112.0j4j2......0....1.........0i71j33i160j30i10.sJmmar9kGrE%3D",
            "client_id": "52fO201R5VCAxCLXVWnHxA\u003d\u003d",
            "time_usec": 1525047879900715
},
        {
            "page_transition": "GENERATED",
            "title": "tenue mondial 2018 - Recherche Google",
            "url": "https://www.google.com/search?q\u003dtenue+mondial+2018\u0026oq\u003dtenue+mondi\u0026aqs\u003dchrome.1.69i57j0l3.6932j0j4\u0026client\u003dms-android-att-us\u0026sourceid\u003dchrome-mobile\u0026ie\u003dUTF-8",
            "client_id": "52fO201R5VCAxCLXVWnHxA\u003d\u003d",
            "time_usec": 1525047873485217
},
        {
            "page_transition": "RELOAD",
            "title": "Sport en direct, Match en direct, infos sport en temps réel - Eurosport",
            "url": "https://www.eurosport.fr/",
            "client_id": "52fO201R5VCAxCLXVWnHxA\u003d\u003d",
            "time_usec": 1525047864239197
},
        {
            "page_transition": "TYPED",
            "title": "Sport en direct, Match en direct, infos sport en temps réel - Eurosport",
            "url": "https://www.eurosport.fr/",
            "client_id": "52fO201R5VCAxCLXVWnHxA\u003d\u003d",
            "time_usec": 1525042439973433
},
        {
            "page_transition": "RELOAD",
            "title": "Google Developers Training  |  Google Developers",
            "url": "https://developers.google.com/training/web/",
            "client_id": "52fO201R5VCAxCLXVWnHxA\u003d\u003d",
            "time_usec": 1525042436502766
},
        {
            "page_transition": "LINK",
            "title": "Google Developers Training  |  Google Developers",
            "url": "https://developers.google.com/training/web/",
            "client_id": "52fO201R5VCAxCLXVWnHxA\u003d\u003d",
            "time_usec": 1525039452969078
},
        {
            "page_transition": "LINK",
            "title": "Google Developers Certification  |  Google Developers",
            "url": "https://developers.google.com/training/certification/",
            "client_id": "52fO201R5VCAxCLXVWnHxA\u003d\u003d",
            "time_usec": 1525039345774516
},
        {
            "page_transition": "LINK",
            "title": "Google Developers Training  |  Google Developers",
            "url": "https://developers.google.com/training/",
            "client_id": "52fO201R5VCAxCLXVWnHxA\u003d\u003d",
            "time_usec": 1525039325269759
},
        {
            "page_transition": "GENERATED",
            "title": "become a developper in google - Recherche Google",
            "url": "https://www.google.com/search?q\u003dbecome+a+developper+in+google\u0026oq\u003dbecome+a+developper+in+google\u0026aqs\u003dchrome..69i57j0l2.6033j0j4\u0026client\u003dms-android-att-us\u0026sourceid\u003dchrome-mobile\u0026ie\u003dUTF-8",
            "client_id": "52fO201R5VCAxCLXVWnHxA\u003d\u003d",
            "time_usec": 1525039313583921
},
        {
            "page_transition": "RELOAD",
            "title": "Statistiques et records du football en Espagne \u2014 Wikipédia",
            "url": "https://fr.m.wikipedia.org/wiki/Statistiques_et_records_du_football_en_Espagne",
            "client_id": "52fO201R5VCAxCLXVWnHxA\u003d\u003d",
            "time_usec": 1525039304833306
},
        {
            "page_transition": "LINK",
            "title": "Statistiques et records du football en Espagne \u2014 Wikipédia",
            "url": "https://fr.m.wikipedia.org/wiki/Statistiques_et_records_du_football_en_Espagne",
            "client_id": "52fO201R5VCAxCLXVWnHxA\u003d\u003d",
            "time_usec": 1525033656249235
},
        {
            "page_transition": "GENERATED",
            "title": "record points liga - Recherche Google",
            "url": "https://www.google.com/search?q\u003drecord+points+liga\u0026oq\u003drecord+points+liga\u0026aqs\u003dchrome..69i57j0l3.8173j0j4\u0026client\u003dms-android-att-us\u0026sourceid\u003dchrome-mobile\u0026ie\u003dUTF-8",
            "client_id": "52fO201R5VCAxCLXVWnHxA\u003d\u003d",
            "time_usec": 1525033647192147
},
        {
            "page_transition": "RELOAD",
            "title": "beIN Sports 2 (France) - Live Stream | FirstOne TV - Watch TV when and where you want!",
            "url": "https://www.firstonetv.net/Live/France/beIN-Sports-2-63",
            "client_id": "52fO201R5VCAxCLXVWnHxA\u003d\u003d",
            "time_usec": 1525033637118483
},
        {
            "page_transition": "LINK",
            "title": "beIN Sports 2 (France) - Live Stream | FirstOne TV - Watch TV when and where you want!",
            "url": "https://www.firstonetv.net/Live/France/beIN-Sports-2-63",
            "client_id": "52fO201R5VCAxCLXVWnHxA\u003d\u003d",
            "time_usec": 1525032813002795
},
        {
            "page_transition": "TYPED",
            "title": "France TV-Channels | FirstOne TV - Watch TV when and where you want!",
            "url": "https://www.firstonetv.net/Live/France",
            "client_id": "52fO201R5VCAxCLXVWnHxA\u003d\u003d",
            "time_usec": 1525032788109560
},
        {
            "page_transition": "TYPED",
            "title": "FlashResultats.fr: Foot en direct, Ligue 1, Résultats Foot, Match en Direct Live",
            "url": "https://www.flashresultats.fr/",
            "client_id": "52fO201R5VCAxCLXVWnHxA\u003d\u003d",
            "time_usec": 1525032784194755
},
        {
            "page_transition": "LINK",
            "title": "EN DIRECT / LIVE. La Corogne - FC Barcelone - Liga - 29 avril 2018 - Eurosport",
            "url": "https://www.eurosport.fr/football/liga/2017-2018/live-la-corogne-fc-barcelone_mtc971797/live.shtml",
            "client_id": "52fO201R5VCAxCLXVWnHxA\u003d\u003d",
            "time_usec": 1525032760460352
},
        {
            "page_transition": "LINK",
            "title": "EN DIRECT / LIVE. La Corogne - FC Barcelone - Liga - 29 avril 2018 - Eurosport",
            "url": "https://www.eurosport.fr/football/liga/2017-2018/live-la-corogne-fc-barcelone_mtc971797/live.shtml",
            "client_id": "52fO201R5VCAxCLXVWnHxA\u003d\u003d",
            "time_usec": 1525032536948397
},
        {
            "page_transition": "TYPED",
            "title": "Sport en direct, Match en direct, infos sport en temps réel - Eurosport",
            "url": "https://www.eurosport.fr/",
            "client_id": "52fO201R5VCAxCLXVWnHxA\u003d\u003d",
            "time_usec": 1525028925522493
},
        {
            "page_transition": "LINK",
            "title": "EN DIRECT / LIVE. La Corogne - FC Barcelone - Liga - 29 avril 2018 - Eurosport",
            "url": "https://www.eurosport.fr/football/liga/2017-2018/live-la-corogne-fc-barcelone_mtc971797/live.shtml",
            "client_id": "52fO201R5VCAxCLXVWnHxA\u003d\u003d",
            "time_usec": 1525028919528153
},
        {
            "page_transition": "TYPED",
            "title": "Sport en direct, Match en direct, infos sport en temps réel - Eurosport",
            "url": "https://www.eurosport.fr/",
            "client_id": "52fO201R5VCAxCLXVWnHxA\u003d\u003d",
            "time_usec": 1525028908342683
},
        {
            "page_transition": "RELOAD",
            "title": "sandway hay riad - Recherche Google",
            "url": "https://www.google.com/search?q\u003dsandway+hay+riad\u0026oq\u003dsandway+hay+riad\u0026aqs\u003dchrome..69i57j0l2.3805j0j9\u0026client\u003dms-android-att-us\u0026sourceid\u003dchrome-mobile\u0026ie\u003dUTF-8",
            "client_id": "52fO201R5VCAxCLXVWnHxA\u003d\u003d",
            "time_usec": 1525028904500499
},
        {
            "page_transition": "GENERATED",
            "title": "sandway hay riad - Recherche Google",
            "url": "https://www.google.com/search?q\u003dsandway+hay+riad\u0026oq\u003dsandway+hay+riad\u0026aqs\u003dchrome..69i57j0l2.3805j0j9\u0026client\u003dms-android-att-us\u0026sourceid\u003dchrome-mobile\u0026ie\u003dUTF-8",
            "client_id": "52fO201R5VCAxCLXVWnHxA\u003d\u003d",
            "time_usec": 1524950098939372
},
        {
            "page_transition": "LINK",
            "title": "classement botola - Recherche Google",
            "url": "https://www.google.com/search?q\u003dclassement+botola\u0026oq\u003dclassement+botola\u0026aqs\u003dchrome..69i57j69i60j35i39j0l2.6092j0j4\u0026client\u003dms-android-att-us\u0026sourceid\u003dchrome-mobile\u0026ie\u003dUTF-8#sie\u003dlg;/g/11df0q45dq;2;/m/0cvpsc;st;fp;1",
            "client_id": "52fO201R5VCAxCLXVWnHxA\u003d\u003d",
            "time_usec": 1524949635384447
},
        {
            "page_transition": "GENERATED",
            "title": "classement botola - Recherche Google",
            "url": "https://www.google.com/search?q\u003dclassement+botola\u0026oq\u003dclassement+botola\u0026aqs\u003dchrome..69i57j69i60j35i39j0l2.6092j0j4\u0026client\u003dms-android-att-us\u0026sourceid\u003dchrome-mobile\u0026ie\u003dUTF-8",
            "client_id": "52fO201R5VCAxCLXVWnHxA\u003d\u003d",
            "time_usec": 1524949616404698
},
        {
            "page_transition": "RELOAD",
            "title": "Booking.com: Hôtels Bou Azza. Réservez maintenant !",
            "url": "https://www.booking.com/searchresults.fr.html?aid\u003d318615;label\u003dFrench_Morocco_FR_MA_29562101545-wSSpLEit5rKfLSMfHJIi7ASM113417579065%3Apl%3Ata%3Ap1%3Ap2%3Aac%3Aap1t1%3Aneg%3Afi7761602313%3Atiaud-146342138710%3Adsa-321388393130%3Alp9073703%3Ali%3Adem%3Adm;sid\u003d5e3b008ed2daeae63eba4b58fe06ae6f;city\u003d-26647;expand_sb\u003d1;highlighted_hotels\u003d1677264;hlrd\u003dno_dates;keep_landing\u003d1;redirected\u003d1;source\u003dhotel\u0026gclid\u003dCjwKCAjwlIvXBRBjEiwATWAQIi6NbFUoGm4zdP7q92vNm75nMTHiztKPUvGpx759yYxKybQYXndiVRoCKlQQAvD_BwE\u0026",
            "client_id": "52fO201R5VCAxCLXVWnHxA\u003d\u003d",
            "time_usec": 1524949609272922
},
        {
            "page_transition": "TYPED",
            "title": "Amine Tbeur Photography",
            "url": "http://5.153.23.28/~tbeur/",
            "client_id": "52fO201R5VCAxCLXVWnHxA\u003d\u003d",
            "time_usec": 1524876776668984
},
        {
            "page_transition": "LINK",
            "title": "Le Chant des Oliviers, Bou Azza : avis récents",
            "url": "https://www.booking.com/hotel/ma/le-chant-des-oliviers.fr.html?aid\u003d318615;label\u003dFrench_Morocco_FR_MA_29562101545-wSSpLEit5rKfLSMfHJIi7ASM113417579065%3Apl%3Ata%3Ap1%3Ap2%3Aac%3Aap1t1%3Aneg%3Afi7761602313%3Atiaud-146342138710%3Adsa-321388393130%3Alp9073703%3Ali%3Adem%3Adm;sid\u003d5e3b008ed2daeae63eba4b58fe06ae6f;cdist\u003d2%2C2%20km;dest_id\u003d-26647;dest_type\u003dcity;dist\u003d0;hapos\u003d1;m_occ\u003d2;room1\u003dA%2CA;sb_price_type\u003dtotal;type\u003dtotal;ucfs\u003d1\u0026",
            "client_id": "52fO201R5VCAxCLXVWnHxA\u003d\u003d",
            "time_usec": 1524867600700760
},
        {
            "page_transition": "LINK",
            "title": "Le Chant des Oliviers, Bou Azza : avis récents",
            "url": "https://www.booking.com/searchresults.fr.html?aid\u003d318615;label\u003dFrench_Morocco_FR_MA_29562101545-wSSpLEit5rKfLSMfHJIi7ASM113417579065%3Apl%3Ata%3Ap1%3Ap2%3Aac%3Aap1t1%3Aneg%3Afi7761602313%3Atiaud-146342138710%3Adsa-321388393130%3Alp9073703%3Ali%3Adem%3Adm;sid\u003d5e3b008ed2daeae63eba4b58fe06ae6f;city\u003d-26647;expand_sb\u003d1;highlighted_hotels\u003d1677264;hlrd\u003dno_dates;keep_landing\u003d1;redirected\u003d1;source\u003dhotel\u0026gclid\u003dCjwKCAjwlIvXBRBjEiwATWAQIi6NbFUoGm4zdP7q92vNm75nMTHiztKPUvGpx759yYxKybQYXndiVRoCKlQQAvD_BwE\u0026",
            "client_id": "52fO201R5VCAxCLXVWnHxA\u003d\u003d",
            "time_usec": 1524867600678531
},
        {
            "page_transition": "LINK",
            "title": "Booking.com: Hôtels Bou Azza. Réservez maintenant !",
            "url": "https://www.booking.com/searchresults.fr.html?aid\u003d318615;label\u003dFrench_Morocco_FR_MA_29562101545-wSSpLEit5rKfLSMfHJIi7ASM113417579065%3Apl%3Ata%3Ap1%3Ap2%3Aac%3Aap1t1%3Aneg%3Afi7761602313%3Atiaud-146342138710%3Adsa-321388393130%3Alp9073703%3Ali%3Adem%3Adm;sid\u003d5e3b008ed2daeae63eba4b58fe06ae6f;city\u003d-26647;expand_sb\u003d1;highlighted_hotels\u003d1677264;hlrd\u003dno_dates;keep_landing\u003d1;redirected\u003d1;source\u003dhotel\u0026gclid\u003dCjwKCAjwlIvXBRBjEiwATWAQIi6NbFUoGm4zdP7q92vNm75nMTHiztKPUvGpx759yYxKybQYXndiVRoCKlQQAvD_BwE\u0026",
            "client_id": "52fO201R5VCAxCLXVWnHxA\u003d\u003d",
            "time_usec": 1524867588832969
},
        {
            "page_transition": "GENERATED",
            "title": "chant des oliviers marrakech - Recherche Google",
            "url": "https://www.google.com/search?q\u003dchant+des+oliviers+marrakech\u0026oq\u003dchant+des+oliviers\u0026aqs\u003dchrome.1.69i57j0l3.5693j0j4\u0026client\u003dms-android-att-us\u0026sourceid\u003dchrome-mobile\u0026ie\u003dUTF-8",
            "client_id": "52fO201R5VCAxCLXVWnHxA\u003d\u003d",
            "time_usec": 1524867583640299
},
        {
            "page_transition": "TYPED",
            "title": "Sport en direct, Match en direct, infos sport en temps réel - Eurosport",
            "url": "https://www.eurosport.fr/",
            "client_id": "52fO201R5VCAxCLXVWnHxA\u003d\u003d",
            "time_usec": 1524866701774094
},
        {
            "page_transition": "RELOAD",
            "title": "Atteinte de scoliose et de hernie, cette grand-mère a souffert toute sa vie. La suite est un miracle.",
            "url": "http://www.ohmymag.com/emotion/atteinte-de-scoliose-et-de-hernie-cette-grand-mere-a-souffert-toute-sa-vie-la-suite-est-un-miracle_art98986.html",
            "client_id": "52fO201R5VCAxCLXVWnHxA\u003d\u003d",
            "time_usec": 1524866696775254
},
        {
            "page_transition": "TYPED",
            "title": "Amine Tbeur Photography",
            "url": "http://5.153.23.28/~tbeur/",
            "client_id": "52fO201R5VCAxCLXVWnHxA\u003d\u003d",
            "time_usec": 1524866696196900
},
        {
            "page_transition": "TYPED",
            "title": "Google",
            "url": "https://www.google.fr/",
            "client_id": "52fO201R5VCAxCLXVWnHxA\u003d\u003d",
            "time_usec": 1524866678822437
},
        {
            "page_transition": "TYPED",
            "title": "Amine Tbeur Photography",
            "url": "http://5.153.23.28/~tbeur/",
            "client_id": "52fO201R5VCAxCLXVWnHxA\u003d\u003d",
            "time_usec": 1524866640900162
},
        {
            "page_transition": "TYPED",
            "title": "Amine Tbeur Photography",
            "url": "http://5.153.23.28/~tbeur/",
            "client_id": "52fO201R5VCAxCLXVWnHxA\u003d\u003d",
            "time_usec": 1524865850134378
},
        {
            "page_transition": "RELOAD",
            "title": "Atteinte de scoliose et de hernie, cette grand-mère a souffert toute sa vie. La suite est un miracle.",
            "url": "http://www.ohmymag.com/emotion/atteinte-de-scoliose-et-de-hernie-cette-grand-mere-a-souffert-toute-sa-vie-la-suite-est-un-miracle_art98986.html",
            "client_id": "52fO201R5VCAxCLXVWnHxA\u003d\u003d",
            "time_usec": 1524862703116072
},
        {
            "page_transition": "GENERATED",
            "title": "commision autorization recharge - Recherche Google",
            "url": "https://www.google.com/search?q\u003dcommision+autorization+recharge\u0026oq\u003dcommision+autorization+recharge\u0026aqs\u003dchrome..69i57.11458j0j4\u0026client\u003dms-android-att-us\u0026sourceid\u003dchrome-mobile\u0026ie\u003dUTF-8",
            "client_id": "52fO201R5VCAxCLXVWnHxA\u003d\u003d",
            "time_usec": 1524862696487654
},
        {
            "page_transition": "LINK",
            "title": "Attention de la banque CIH l\u0027arnaque pure et dur",
            "url": "https://www.yabiladi.com/forum/attention-banque-l-arnaque-pure-68-7119442.html",
            "client_id": "52fO201R5VCAxCLXVWnHxA\u003d\u003d",
            "time_usec": 1524862617361445
},
        {
            "page_transition": "GENERATED",
            "title": "commision autorization recharge - Recherche Google",
            "url": "https://www.google.com/search?q\u003dcommision+autorization+recharge\u0026oq\u003dcommision+autorization+recharge\u0026aqs\u003dchrome..69i57.11458j0j4\u0026client\u003dms-android-att-us\u0026sourceid\u003dchrome-mobile\u0026ie\u003dUTF-8",
            "client_id": "52fO201R5VCAxCLXVWnHxA\u003d\u003d",
            "time_usec": 1524862560747147
},
        {
            "page_transition": "RELOAD",
            "title": "Atteinte de scoliose et de hernie, cette grand-mère a souffert toute sa vie. La suite est un miracle.",
            "url": "http://www.ohmymag.com/emotion/atteinte-de-scoliose-et-de-hernie-cette-grand-mere-a-souffert-toute-sa-vie-la-suite-est-un-miracle_art98986.html",
            "client_id": "52fO201R5VCAxCLXVWnHxA\u003d\u003d",
            "time_usec": 1524862531283897
},
        {
            "page_transition": "LINK",
            "title": "Atteinte de scoliose et de hernie, cette grand-mère a souffert toute sa vie. La suite est un miracle.",
            "url": "http://www.ohmymag.com/emotion/atteinte-de-scoliose-et-de-hernie-cette-grand-mere-a-souffert-toute-sa-vie-la-suite-est-un-miracle_art98986.html",
            "client_id": "52fO201R5VCAxCLXVWnHxA\u003d\u003d",
            "time_usec": 1524837945425345
},
        {
            "page_transition": "LINK",
            "title": "Atteinte de scoliose et de hernie, cette grand-mère a souffert toute sa vie. La suite est un miracle.",
            "url": "http://www.ohmymag.com/emotion/atteinte-de-scoliose-et-de-hernie-cette-grand-mere-a-souffert-toute-sa-vie-la-suite-est-un-miracle_art98986.html#",
            "client_id": "52fO201R5VCAxCLXVWnHxA\u003d\u003d",
            "time_usec": 1524837938578229
},
        {
            "page_transition": "LINK",
            "title": "Atteinte de scoliose et de hernie, cette grand-mère a souffert toute sa vie. La suite est un miracle.",
            "url": "http://www.ohmymag.com/emotion/atteinte-de-scoliose-et-de-hernie-cette-grand-mere-a-souffert-toute-sa-vie-la-suite-est-un-miracle_art98986.html#",
            "client_id": "52fO201R5VCAxCLXVWnHxA\u003d\u003d",
            "time_usec": 1524837873159937
},
        {
            "page_transition": "LINK",
            "title": "Atteinte de scoliose et de hernie, cette grand-mère a souffert toute sa vie. La suite est un miracle.",
            "url": "http://www.ohmymag.com/emotion/atteinte-de-scoliose-et-de-hernie-cette-grand-mere-a-souffert-toute-sa-vie-la-suite-est-un-miracle_art98986.html",
            "client_id": "52fO201R5VCAxCLXVWnHxA\u003d\u003d",
            "time_usec": 1524837858496905
},
        {
            "page_transition": "FORM_SUBMIT",
            "title": "hernie discale vielle femme - Recherche Google",
            "url": "https://www.google.com/search?safe\u003doff\u0026client\u003dms-android-att-us\u0026ei\u003dxC3jWqyVDIPJsQGe0Y24Cg\u0026q\u003dhernie+discale+vielle+femme\u0026oq\u003dhernie+discale+vielle+femme\u0026gs_l\u003dmobile-gws-serp.3..30i10.4759.10892..11122...1....216.2472.0j10j4..........1..mobile-gws-wiz-serp.......0j0i71j0i67j0i22i30j33i160j0i13j0i13i5i30j0i8i13i30j33i21.pmSfcc8vKmo%3D",
            "client_id": "52fO201R5VCAxCLXVWnHxA\u003d\u003d",
            "time_usec": 1524837842771689
},
        {
            "page_transition": "GENERATED",
            "title": "hernie discale - Recherche Google",
            "url": "https://www.google.com/search?q\u003dhernie+discale\u0026oq\u003dhernie+d\u0026aqs\u003dchrome.1.69i57j0j5j0.5227j1j4\u0026client\u003dms-android-att-us\u0026sourceid\u003dchrome-mobile\u0026ie\u003dUTF-8",
            "client_id": "52fO201R5VCAxCLXVWnHxA\u003d\u003d",
            "time_usec": 1524837829414309
},
        {
            "page_transition": "RELOAD",
            "title": "Sport en direct, Match en direct, infos sport en temps réel - Eurosport",
            "url": "https://www.eurosport.fr/",
            "client_id": "52fO201R5VCAxCLXVWnHxA\u003d\u003d",
            "time_usec": 1524837821571178
},
        {
            "page_transition": "TYPED",
            "title": "Sport en direct, Match en direct, infos sport en temps réel - Eurosport",
            "url": "https://www.eurosport.fr/",
            "client_id": "52fO201R5VCAxCLXVWnHxA\u003d\u003d",
            "time_usec": 1524786592840157
},
        {
            "page_transition": "FORM_SUBMIT",
            "title": "jack daniel byrne - Recherche Google",
            "url": "https://www.google.com/search?safe\u003doff\u0026client\u003dms-android-att-us\u0026biw\u003d360\u0026bih\u003d306\u0026tbm\u003disch\u0026sa\u003d1\u0026ei\u003dfGXiWsyaJeKp6ASOlbDgDA\u0026q\u003djack+daniel+byrne\u0026oq\u003djack+daniel+\u0026gs_l\u003dmobile-gws-img.1.4.35i39l2j0l3.16438.16817..20024...0....164.463.0j3..........1..mobile-gws-wiz-img.......0i8i30j0i24.90ABgD2kvmc%3D",
            "client_id": "52fO201R5VCAxCLXVWnHxA\u003d\u003d",
            "time_usec": 1524786579148561
},
        {
            "page_transition": "FORM_SUBMIT",
            "title": "jack daniel rye - Recherche Google",
            "url": "https://www.google.com/search?safe\u003doff\u0026client\u003dms-android-att-us\u0026biw\u003d360\u0026bih\u003d306\u0026tbm\u003disch\u0026sa\u003d1\u0026ei\u003da2XiWv-dGoGC6ASjwIh4\u0026q\u003djack+daniel+rye\u0026oq\u003djack+daniel+rye\u0026gs_l\u003dmobile-gws-img.3..0j0i8i30l2j0i24l2.12735.14858..15408...0....369.1311.0j6j0j1..........1..mobile-gws-wiz-img.......35i39j0i30j0i10i30.VeizvPTBG7I%3D",
            "client_id": "52fO201R5VCAxCLXVWnHxA\u003d\u003d",
            "time_usec": 1524786557594135
},
        {
            "page_transition": "LINK",
            "title": "jack daniel fire - Recherche Google",
            "url": "https://www.google.com/search?q\u003djack+daniel+fire\u0026safe\u003doff\u0026client\u003dms-android-att-us\u0026prmd\u003dinv\u0026source\u003dlnms\u0026tbm\u003disch\u0026sa\u003dX\u0026ved\u003d0ahUKEwj4nsq-kNnaAhXBw6YKHXKDAt8Q_AUIESgB\u0026biw\u003d360\u0026bih\u003d559",
            "client_id": "52fO201R5VCAxCLXVWnHxA\u003d\u003d",
            "time_usec": 1524786540501554
},
        {
            "page_transition": "FORM_SUBMIT",
            "title": "jack daniel fire - Recherche Google",
            "url": "https://www.google.com/search?safe\u003doff\u0026client\u003dms-android-att-us\u0026ei\u003dY2XiWuzEDKOn6ATjh5OIDw\u0026q\u003djack+daniel+fire\u0026oq\u003djack+daniel+fire\u0026gs_l\u003dmobile-gws-serp.3..0j0i203j0l3.1649.2245..2383...0....350.813.0j3j0j1..........1..mobile-gws-wiz-serp.......0i67j0i20i263.mIPkwvv0t24%3D",
            "client_id": "52fO201R5VCAxCLXVWnHxA\u003d\u003d",
            "time_usec": 1524786536710112
},
        {
            "page_transition": "GENERATED",
            "title": "jack daniel - Recherche Google",
            "url": "https://www.google.com/search?q\u003djack+daniel\u0026oq\u003djack+daniel\u0026aqs\u003dchrome..69i57j0l3.2337j0j4\u0026client\u003dms-android-att-us\u0026sourceid\u003dchrome-mobile\u0026ie\u003dUTF-8",
            "client_id": "52fO201R5VCAxCLXVWnHxA\u003d\u003d",
            "time_usec": 1524786532380691
},
        {
            "page_transition": "LINK",
            "title": "EN DIRECT / LIVE. Arsenal - Atlético Madrid - Ligue Europa - 26 avril 2018 - Eurosport",
            "url": "https://www.eurosport.fr/football/ligue-europa/2017-2018/live-arsenal-atletico-madrid_mtc949345/live.shtml",
            "client_id": "52fO201R5VCAxCLXVWnHxA\u003d\u003d",
            "time_usec": 1524775172032566
},
        {
            "page_transition": "TYPED",
            "title": "Sport en direct, Match en direct, infos sport en temps réel - Eurosport",
            "url": "https://www.eurosport.fr/",
            "client_id": "52fO201R5VCAxCLXVWnHxA\u003d\u003d",
            "time_usec": 1524775164728489
},
        {
            "page_transition": "TYPED",
            "title": "Amine Tbeur Photography",
            "url": "http://5.153.23.28/~tbeur/",
            "client_id": "52fO201R5VCAxCLXVWnHxA\u003d\u003d",
            "time_usec": 1524772314166531
},
        {
            "page_transition": "TYPED",
            "title": "Amine Tbeur Photography",
            "url": "http://5.153.23.28/~tbeur/",
            "client_id": "52fO201R5VCAxCLXVWnHxA\u003d\u003d",
            "time_usec": 1524772268979367
},
        {
            "page_transition": "TYPED",
            "title": "Amine Tbeur Photography",
            "url": "http://5.153.23.28/~tbeur/",
            "client_id": "52fO201R5VCAxCLXVWnHxA\u003d\u003d",
            "time_usec": 1524772236091249
},
        {
            "page_transition": "TYPED",
            "title": "Amine Tbeur Photography",
            "url": "http://5.153.23.28/~tbeur/",
            "client_id": "52fO201R5VCAxCLXVWnHxA\u003d\u003d",
            "time_usec": 1524772202239634
},
        {
            "page_transition": "TYPED",
            "title": "FlashResultats.fr: Foot en direct, Ligue 1, Résultats Foot, Match en Direct Live",
            "url": "https://www.flashresultats.fr/",
            "client_id": "52fO201R5VCAxCLXVWnHxA\u003d\u003d",
            "time_usec": 1524769146903712
},
        {
            "page_transition": "TYPED",
            "title": "France TV-Channels | FirstOne TV - Watch TV when and where you want!",
            "url": "https://www.firstonetv.net/Live/France",
            "client_id": "52fO201R5VCAxCLXVWnHxA\u003d\u003d",
            "time_usec": 1524769120212816
},
        {
            "page_transition": "LINK",
            "title": "beIN Sports 1 (France) - Live Stream | FirstOne TV - Watch TV when and where you want!",
            "url": "https://www.firstonetv.net/Live/France/beIN-Sports-1-46",
            "client_id": "52fO201R5VCAxCLXVWnHxA\u003d\u003d",
            "time_usec": 1524769082904528
},
        {
            "page_transition": "TYPED",
            "title": "France TV-Channels | FirstOne TV - Watch TV when and where you want!",
            "url": "https://www.firstonetv.net/Live/France",
            "client_id": "52fO201R5VCAxCLXVWnHxA\u003d\u003d",
            "time_usec": 1524769069570038
},
        {
            "page_transition": "TYPED",
            "title": "FlashResultats.fr: Foot en direct, Ligue 1, Résultats Foot, Match en Direct Live",
            "url": "https://www.flashresultats.fr/",
            "client_id": "52fO201R5VCAxCLXVWnHxA\u003d\u003d",
            "time_usec": 1524769064300232
},
        {
            "page_transition": "LINK",
            "title": "Accueil | Leyton",
            "url": "https://www.leyton.com/fr/maroc/accueil",
            "client_id": "52fO201R5VCAxCLXVWnHxA\u003d\u003d",
            "time_usec": 1524748443891228
},
        {
            "page_transition": "LINK",
            "title": "Accueil | Leyton",
            "url": "https://www.leyton.com/",
            "client_id": "52fO201R5VCAxCLXVWnHxA\u003d\u003d",
            "time_usec": 1524748403128242
},
        {
            "page_transition": "GENERATED",
            "title": "leyton - Recherche Google",
            "url": "https://www.google.com/search?q\u003dleyton\u0026oq\u003dleyton\u0026aqs\u003dchrome.0.0l3.1985j0j9\u0026client\u003dms-android-att-us\u0026sourceid\u003dchrome-mobile\u0026ie\u003dUTF-8",
            "client_id": "52fO201R5VCAxCLXVWnHxA\u003d\u003d",
            "time_usec": 1524746753157404
},
        {
            "page_transition": "LINK",
            "title": "Offres d\u2019emploi | Leyton",
            "url": "https://www.leyton.com/fr/france/offres-demploi",
            "client_id": "52fO201R5VCAxCLXVWnHxA\u003d\u003d",
            "time_usec": 1524746700977058
},
        {
            "page_transition": "LINK",
            "title": "Directeur informatique | Leyton",
            "url": "https://www.leyton.com/fr/france/offres/directeur-informatique",
            "client_id": "52fO201R5VCAxCLXVWnHxA\u003d\u003d",
            "time_usec": 1524746688010593
},
        {
            "page_transition": "LINK",
            "title": "Offres d\u2019emploi | Leyton",
            "url": "https://www.leyton.com/fr/france/offres-demploi",
            "client_id": "52fO201R5VCAxCLXVWnHxA\u003d\u003d",
            "time_usec": 1524746650462391
},
        {
            "page_transition": "GENERATED",
            "title": "leyton - Recherche Google",
            "url": "https://www.google.com/search?q\u003dleyton\u0026oq\u003dleyton\u0026aqs\u003dchrome.0.0l3.1985j0j9\u0026client\u003dms-android-att-us\u0026sourceid\u003dchrome-mobile\u0026ie\u003dUTF-8",
            "client_id": "52fO201R5VCAxCLXVWnHxA\u003d\u003d",
            "time_usec": 1524746637108563
},
        {
            "page_transition": "RELOAD",
            "title": "Anthony Hopkins",
            "url": "https://www.google.com/search?q\u003dwestworld+acteur\u0026oq\u003dwestworld+acteur\u0026aqs\u003dchrome..69i57j0.2619j0j4\u0026client\u003dms-android-att-us\u0026sourceid\u003dchrome-mobile\u0026ie\u003dUTF-8#mie\u003de,overview,Anthony%20Hopkins,H4sIAAAAAAAAAONgVmLXz9U3qDIpfsToxC3w8sc9YSnLSWtOXmM05hLLTrbSLykDoviCovz0osRcq-TE4hIhSS4217ySzJJKIX4pXi5ukH5Dw2SzquRkHgDl2OBSUAAAAA",
            "client_id": "52fO201R5VCAxCLXVWnHxA\u003d\u003d",
            "time_usec": 1524746628483108
},
        {
            "page_transition": "LINK",
            "title": "Anthony Hopkins",
            "url": "https://www.google.com/search?q\u003dwestworld+acteur\u0026oq\u003dwestworld+acteur\u0026aqs\u003dchrome..69i57j0.2619j0j4\u0026client\u003dms-android-att-us\u0026sourceid\u003dchrome-mobile\u0026ie\u003dUTF-8#mie\u003de,overview,Anthony%20Hopkins,H4sIAAAAAAAAAONgVmLXz9U3qDIpfsToxC3w8sc9YSnLSWtOXmM05hLLTrbSLykDoviCovz0osRcq-TE4hIhSS4217ySzJJKIX4pXi5ukH5Dw2SzquRkHgDl2OBSUAAAAA",
            "client_id": "52fO201R5VCAxCLXVWnHxA\u003d\u003d",
            "time_usec": 1524697322315152
},
        {
            "page_transition": "GENERATED",
            "title": "Anthony Hopkins",
            "url": "https://www.google.com/search?q\u003dwestworld+acteur\u0026oq\u003dwestworld+acteur\u0026aqs\u003dchrome..69i57j0.2619j0j4\u0026client\u003dms-android-att-us\u0026sourceid\u003dchrome-mobile\u0026ie\u003dUTF-8",
            "client_id": "52fO201R5VCAxCLXVWnHxA\u003d\u003d",
            "time_usec": 1524697316946449
},
        {
            "page_transition": "LINK",
            "title": "Fichier:Westworld Logo.svg \u2014 Wikipédia",
            "url": "https://fr.m.wikipedia.org/wiki/Fichier:Westworld_Logo.svg",
            "client_id": "52fO201R5VCAxCLXVWnHxA\u003d\u003d",
            "time_usec": 1524697300104356
},
        {
            "page_transition": "LINK",
            "title": "Westworld (série télévisée) \u2014 Wikipédia",
            "url": "https://fr.m.wikipedia.org/wiki/Westworld_(s%C3%A9rie_t%C3%A9l%C3%A9vis%C3%A9e)",
            "client_id": "52fO201R5VCAxCLXVWnHxA\u003d\u003d",
            "time_usec": 1524697299393333
},
        {
            "page_transition": "GENERATED",
            "title": "westworld - Recherche Google",
            "url": "https://www.google.com/search?q\u003dwestworld\u0026oq\u003dwestworld\u0026aqs\u003dchrome..69i57j0l3.2016j0j4\u0026client\u003dms-android-att-us\u0026sourceid\u003dchrome-mobile\u0026ie\u003dUTF-8",
            "client_id": "52fO201R5VCAxCLXVWnHxA\u003d\u003d",
            "time_usec": 1524697296552526
},
        {
            "page_transition": "LINK",
            "title": "Westworld",
            "url": "https://www.google.com/search?q\u003dwestworld\u0026oq\u003dwestworld\u0026aqs\u003dchrome..69i57j0l3.2016j0j4\u0026client\u003dms-android-att-us\u0026sourceid\u003dchrome-mobile\u0026ie\u003dUTF-8#mie\u003de,overview,westworld,H4sIAAAAAAAAAONgVuLWz9U3MDRMNqtKTn7E6M4t8PLHPWEpu0lrTl5jtODiCs7IL3fNK8ksqRTS4mKDshS4-KWQ9WkwSPFyIQvwAABkVP-jWQAAAA",
            "client_id": "52fO201R5VCAxCLXVWnHxA\u003d\u003d",
            "time_usec": 1524697293936865
},
        {
            "page_transition": "GENERATED",
            "title": "Westworld",
            "url": "https://www.google.com/search?q\u003dwestworld\u0026oq\u003dwestworld\u0026aqs\u003dchrome..69i57j0l3.2016j0j4\u0026client\u003dms-android-att-us\u0026sourceid\u003dchrome-mobile\u0026ie\u003dUTF-8",
            "client_id": "52fO201R5VCAxCLXVWnHxA\u003d\u003d",
            "time_usec": 1524697290237716
},
        {
            "page_transition": "RELOAD",
            "title": "Sport en direct, Match en direct, infos sport en temps réel - Eurosport",
            "url": "https://www.eurosport.fr/",
            "client_id": "52fO201R5VCAxCLXVWnHxA\u003d\u003d",
            "time_usec": 1524697284862164
},
        {
            "page_transition": "TYPED",
            "title": "Sport en direct, Match en direct, infos sport en temps réel - Eurosport",
            "url": "https://www.eurosport.fr/",
            "client_id": "52fO201R5VCAxCLXVWnHxA\u003d\u003d",
            "time_usec": 1524695589958109
},
        {
            "page_transition": "TYPED",
            "title": "Sport en direct, Match en direct, infos sport en temps réel - Eurosport",
            "url": "https://www.eurosport.fr/",
            "client_id": "52fO201R5VCAxCLXVWnHxA\u003d\u003d",
            "time_usec": 1524695568303649
},
        {
            "page_transition": "RELOAD",
            "title": "Ligue Maroc: Botola Pro 2017/2018 Live, Classement Botola Pro 2017/2018",
            "url": "https://www.ligue.fr/football/maroc/botola-pro/",
            "client_id": "52fO201R5VCAxCLXVWnHxA\u003d\u003d",
            "time_usec": 1524693968545588
},
        {
            "page_transition": "GENERATED",
            "title": "botola classement - Recherche Google",
            "url": "https://www.google.com/search?q\u003dbotola+classement\u0026oq\u003dbotola+cl\u0026aqs\u003dchrome.1.69i57j35i39j0l2.3148j0j4\u0026client\u003dms-android-att-us\u0026sourceid\u003dchrome-mobile\u0026ie\u003dUTF-8",
            "client_id": "52fO201R5VCAxCLXVWnHxA\u003d\u003d",
            "time_usec": 1524693946051286
},
        {
            "page_transition": "LINK",
            "title": "VIDÉO - Demie - Zidane : \u0027\u0027Je n\u0027ai jamais voulu le départ de James Rodriguez\u0027\u0027 - Video Eurosport",
            "url": "https://video.eurosport.fr/football/demie-zidane-je-n-ai-jamais-voulu-le-depart-de-james-rodriguez_vid1084023/video.shtml",
            "client_id": "52fO201R5VCAxCLXVWnHxA\u003d\u003d",
            "time_usec": 1524693115490544
},
        {
            "page_transition": "LINK",
            "title": "VIDEO - Marcelo a défié les lois de la physique avec ce contrôle incroyable - Ligue des champions 2017-2018 - Football - Eurosport",
            "url": "https://www.eurosport.fr/football/ligue-des-champions/2017-2018/video-marcelo-a-defie-les-lois-de-la-physique-avec-ce-controle-incroyable_sto6728375/story.shtml",
            "client_id": "52fO201R5VCAxCLXVWnHxA\u003d\u003d",
            "time_usec": 1524693107929970
},
        {
            "page_transition": "RELOAD",
            "title": "Sport en direct, Match en direct, infos sport en temps réel - Eurosport",
            "url": "https://www.eurosport.fr/",
            "client_id": "52fO201R5VCAxCLXVWnHxA\u003d\u003d",
            "time_usec": 1524693100990823
},
        {
            "page_transition": "TYPED",
            "title": "Sport en direct, Match en direct, infos sport en temps réel - Eurosport",
            "url": "https://www.eurosport.fr/",
            "client_id": "52fO201R5VCAxCLXVWnHxA\u003d\u003d",
            "time_usec": 1524693094149790
},
        {
            "page_transition": "LINK",
            "title": "VIDEO - Marcelo a défié les lois de la physique avec ce contrôle incroyable - Ligue des champions 2017-2018 - Football - Eurosport",
            "url": "https://www.eurosport.fr/football/ligue-des-champions/2017-2018/video-marcelo-a-defie-les-lois-de-la-physique-avec-ce-controle-incroyable_sto6728375/story.shtml",
            "client_id": "52fO201R5VCAxCLXVWnHxA\u003d\u003d",
            "time_usec": 1524692986416660
},
        {
            "page_transition": "TYPED",
            "title": "Sport en direct, Match en direct, infos sport en temps réel - Eurosport",
            "url": "https://www.eurosport.fr/",
            "client_id": "52fO201R5VCAxCLXVWnHxA\u003d\u003d",
            "time_usec": 1524692973842366
},
        {
            "page_transition": "LINK",
            "title": "Dance Somewhere Different - 2018 - Oasis Festival 2018 | Marrakech, Morocco",
            "url": "http://theoasisfest.com/",
            "client_id": "52fO201R5VCAxCLXVWnHxA\u003d\u003d",
            "time_usec": 1524692887288969
},
        {
            "page_transition": "FORM_SUBMIT",
            "title": "oasis marrakech - Recherche Google",
            "url": "https://www.google.com/search?safe\u003doff\u0026client\u003dms-android-att-us\u0026ei\u003dgvfgWrniH6zagAampJiICA\u0026q\u003doasis+marrakech\u0026oq\u003doasis+ma\u0026gs_l\u003dmobile-gws-serp.1.0.0l5.12005.13163..14060...0....720.1219.0j1j0j1j6-1..........1..mobile-gws-wiz-serp.......0i71j0i67j0i203.zecxvCqWZsE%3D",
            "client_id": "52fO201R5VCAxCLXVWnHxA\u003d\u003d",
            "time_usec": 1524692884268525
},
        {
            "page_transition": "GENERATED",
            "title": "oasis - Recherche Google",
            "url": "https://www.google.com/search?q\u003doasis\u0026oq\u003doasis\u0026aqs\u003dchrome..69i57j0l3.2864j0j9\u0026client\u003dms-android-att-us\u0026sourceid\u003dchrome-mobile\u0026ie\u003dUTF-8",
            "client_id": "52fO201R5VCAxCLXVWnHxA\u003d\u003d",
            "time_usec": 1524692867435693
},
        {
            "page_transition": "LINK",
            "title": "Carl Cox - Recherche Google",
            "url": "https://www.google.com/search?safe\u003doff\u0026client\u003dms-android-att-us\u0026q\u003dCarl+Cox\u0026stick\u003dH4sIAAAAAAAAAONgFuLSz9U3ME4zrjLIVeIEsU3KMjJMtPgCUouK8_OCM1NSyxMriwGrtiBIKQAAAA\u0026sa\u003dX\u0026ved\u003d0ahUKEwjpzqq5r9baAhVEVSwKHc_6B-QQxA0IwAEwHA\u0026biw\u003d360\u0026bih\u003d559",
            "client_id": "52fO201R5VCAxCLXVWnHxA\u003d\u003d",
            "time_usec": 1524691809105031
},
        {
            "page_transition": "LINK",
            "title": "Carl Cox \u2014 Wikipédia",
            "url": "https://fr.m.wikipedia.org/wiki/Carl_Cox",
            "client_id": "52fO201R5VCAxCLXVWnHxA\u003d\u003d",
            "time_usec": 1524691789290918
},
        {
            "page_transition": "LINK",
            "title": "Carl Cox - Recherche Google",
            "url": "https://www.google.com/search?safe\u003doff\u0026client\u003dms-android-att-us\u0026q\u003dCarl+Cox\u0026stick\u003dH4sIAAAAAAAAAONgFuLSz9U3ME4zrjLIVeIEsU3KMjJMtPgCUouK8_OCM1NSyxMriwGrtiBIKQAAAA\u0026sa\u003dX\u0026ved\u003d0ahUKEwjpzqq5r9baAhVEVSwKHc_6B-QQxA0IwAEwHA\u0026biw\u003d360\u0026bih\u003d559",
            "client_id": "52fO201R5VCAxCLXVWnHxA\u003d\u003d",
            "time_usec": 1524691782301366
},
        {
            "page_transition": "GENERATED",
            "title": "solomun - Recherche Google",
            "url": "https://www.google.com/search?q\u003dsolomun\u0026oq\u003dsolomun\u0026aqs\u003dchrome..69i57j0l3.1716j0j9\u0026client\u003dms-android-att-us\u0026sourceid\u003dchrome-mobile\u0026ie\u003dUTF-8",
            "client_id": "52fO201R5VCAxCLXVWnHxA\u003d\u003d",
            "time_usec": 1524691779483082
},
        {
            "page_transition": "LINK",
            "title": "Solomun - Wikipedia",
            "url": "https://en.m.wikipedia.org/wiki/Solomun",
            "client_id": "52fO201R5VCAxCLXVWnHxA\u003d\u003d",
            "time_usec": 1524691774537749
},
        {
            "page_transition": "GENERATED",
            "title": "solomun - Recherche Google",
            "url": "https://www.google.com/search?q\u003dsolomun\u0026oq\u003dsolomun\u0026aqs\u003dchrome..69i57j0l3.1716j0j9\u0026client\u003dms-android-att-us\u0026sourceid\u003dchrome-mobile\u0026ie\u003dUTF-8",
            "client_id": "52fO201R5VCAxCLXVWnHxA\u003d\u003d",
            "time_usec": 1524691767996011
},
        {
            "page_transition": "GENERATED",
            "title": "tom hanks - Recherche Google",
            "url": "https://www.google.com/search?q\u003dtom+hanks\u0026oq\u003dtom+hanks\u0026aqs\u003dchrome..69i57j69i61j69i60l2j69i59j69i61.1360j0j4\u0026client\u003dms-android-att-us\u0026sourceid\u003dchrome-mobile\u0026ie\u003dUTF-8",
            "client_id": "52fO201R5VCAxCLXVWnHxA\u003d\u003d",
            "time_usec": 1524690404643397
},
        {
            "page_transition": "LINK",
            "title": "VIDEO - Inoubliable, frustration, Drogba : Les 5 demi-finales de l\u0027OM en Coupe d\u0027Europe - Ligue Europa - Video Eurosport",
            "url": "https://video.eurosport.fr/football/ligue-europa/2017-2018/video-inoubliable-frustration-drogba-les-5-demi-finales-de-l-om-en-coupe-d-europe_vid1084255/video.shtml",
            "client_id": "52fO201R5VCAxCLXVWnHxA\u003d\u003d",
            "time_usec": 1524690275537490
},
        {
            "page_transition": "LINK",
